Airport,Country,icao_code,city,iata_code,airport_lat,airport_lng,iso_country_code,chronotrain_id,train_station_lat,train_station_lng,city_lat,city_lng,place_id
Tirana Airport,Albania,LATI,Tirana,TIA,41.4219,19.71296,ALB,8302063.0,86.70419,45.111682,41.3275459,19.8186982,ChIJ28X6cAQxUBMRIDdlEK-SAAQ
Graz Airport,Austria,LOWG,Graz,GRZ,46.99107,15.43963,AUT,2778067.0,15.45,47.06667,47.070714,15.439504,ChIJu2UwF4c1bkcRm93f0tGKjv4
Innsbruck Airport,Austria,LOWI,Innsbruck,INN,47.26022,11.34396,AUT,2775220.0,11.39454,47.26266,47.2692124,11.4041024,ChIJc8r44c9unUcRDZsdKH0cIJ0
Klagenfurt Airport,Austria,LOWK,Klagenfurt,KLU,46.645,14.32667,AUT,2774326.0,14.30528,46.62472,46.6364598,14.3122246,ChIJZX6PMEVzcEcRK41hjN-2fmg
Linz Airport,Austria,LOWL,Linz,LNZ,48.23322,14.18751,AUT,2772400.0,14.28611,48.30639,48.30694,14.28583,ChIJTYWZ-pWVc0cRxHV5VywpU3w
Salzburg Airport,Austria,LOWS,Salzburg,SZG,47.7933,13.00433,AUT,2766824.0,13.04399,47.79941,47.80949,13.05501,ChIJsdQIqd2adkcRPfcqQaGD4cE
Vienna Airport,Austria,LOWW,Vienna,VIE,48.1221,16.55751,AUT,2761369.0,16.37208,48.20849,48.2081664,16.3718643,ChIJn8o2UZ4HbUcRRluiUYrlwv0
Baku Airport,Azerbaijan,UBBB,Baku,GYD,40.46075,50.05154,AZE,685948.0,26.91384,46.56718,40.40926169999999,49.8670924,ChIJ-Rwh1mt9MEARa2zlel5rPzQ
Minsk Airport,Belarus,UMMS,Minsk,MSQ,53.88247,28.03073,BLR,5102293.0,21.553022,52.17581,53.9006011,27.558972,ChIJ02oeW9PP20YR2XC13VO4YQs
Antwerp Airport,Belgium,EBAW,Antwerp,ANR,51.18944,4.46028,BEL,2803138.0,44.0026,51.22047,51.2213404,4.4051485,ChIJfYjDv472w0cRuIqogoRErz4
Brussels Airport,Belgium,EBBR,Brussels,BRU,50.90139,4.48444,BEL,2800866.0,43.4878,50.85045,50.8476424,4.3571696,ChIJZ2jHc-2kw0cRpwJzeGY6i8E
Charleroi Airport,Belgium,EBCI,Charleroi,CRL,50.4592,4.45382,BEL,2800481.0,44.4448,50.41136,50.4096349,4.44601,ChIJyTnKlvAlwkcREGRNL6uZAAQ
Liege Airport,Belgium,EBLG,Liege,LGG,50.63742,5.44322,BEL,2792413.0,55.6749,50.63373,50.63295859999999,5.569749799999999,ChIJ-_ysjkv3wEcRQGtNL6uZAAQ
Ostend Bruges Airport,Belgium,EBOS,Ostend,OST,51.20013,2.87245,BEL,2789786.0,29.27,51.21551,51.2246631,2.9091818,ChIJlaWVGNOo3EcRQpiDCfDblz4
Tuzla Airport,Bosnia and Herzegovina,LQTZ,Tuzla,TZL,44.45866,18.72478,BIH,5381107.0,28.645161,44.003141,40.8982305,29.3598782,ChIJc0MXFqfZyhQRJAST8Rk09x0
Burgas Airport,Bulgaria,LBBG,Burgas,BOJ,42.56958,27.51524,BGR,2960316.0,61.3,49.61167,42.50479259999999,27.4626361,ChIJkZ38-WaSpkAR8E2_aRKgAAQ
Sofia Airport,Bulgaria,LBSF,Sofia,SOF,42.69519,23.40617,BGR,727011.0,23.32415,42.69751,42.6977082,23.3218675,ChIJ9Xsxy4KGqkARYF6_aRKgAAQ
Varna Airport,Bulgaria,LBWN,Varna,VAR,43.23207,27.82511,BGR,726050.0,27.91667,43.21667,43.2140504,27.9147333,ChIJodfzqotTpEARfIulcRyUJ1c
Pula Airport,Croatia,LDPL,Pula,PUY,44.89353,13.92219,HRV,2644210.0,-2.97794,53.41058,44.8666232,13.8495788,ChIJbXszCd7SfEcRDVhOezpKMnI
Rijeka Krk Airport,Croatia,LDRI,Rijeka,RJK,45.21689,14.57027,HRV,3191648.0,14.44241,45.32673,45.3270631,14.442176,ChIJLb6qFyWhZEcRcLbLPThvPDc
Zagreb Airport,Croatia,LDZA,Zagreb,ZAG,45.74056,16.06833,HRV,3186886.0,15.97798,45.81444,45.8150108,15.981919,ChIJOcwCyZLWZUcRisL7KJYkRTo
Brno Airport,Czech Republic,LKTB,Brno,BRQ,49.15127,16.69443,CZE,3078610.0,16.60796,49.19522,49.1950602,16.6068371,ChIJEVE_wDqUEkcRsLEUZg-vAAQ
Prague Airport,Czech Republic,LKPR,Prague,PRG,50.10083,14.26,CZE,3067696.0,14.42076,50.08804,50.0755381,14.4378005,ChIJi3lwCZyTC0cRkEAWZg-vAAQ
Aalborg Airport,Denmark,EKYT,Aalborg,AAL,57.09279,9.84916,DNK,2624886.0,99.187,57.048,57.0488195,9.921747,ChIJDT3fX7IzSUYRwybsLmq0sU4
Aarhus Airport,Denmark,EKAH,Aarhus,AAR,56.3023,10.62627,DNK,2624652.0,10.21076,56.15674,56.162939,10.203921,ChIJi3iXU7FMTEYRr6IukdnXTYw
Copenhagen Airport,Denmark,EKCH,Copenhagen,CPH,55.61792,12.65597,DNK,2618425.0,12.56553,55.67594,55.6760968,12.5683371,ChIJIz2AXDxTUkYRuGeU5t1-3QQ
Helsinki Airport,Finland,EFHK,Helsinki,HEL,60.31722,24.96333,FIN,658225.0,24.93545,60.16952,60.16985569999999,24.938379,ChIJkQYhlscLkkYRY_fiO4S9Ts0
Oulu Airport,Finland,EFOU,Oulu,OUL,64.93006,25.35456,FIN,643492.0,25.46816,65.01236,65.0120888,25.4650773,ChIJwYUhwKgygEYRfekSKzItsIs
Rovaniemi Airport,Finland,EFRO,Rovaniemi,RVN,66.56482,25.83041,FIN,638936.0,25.71667,66.5,66.50394779999999,25.7293905,ChIJUyV3dr1LK0QRxEGItK2IgBU
Tampere Airport,Finland,EFTP,Tampere,TMP,61.41415,23.60439,FIN,634963.0,23.78712,61.49911,61.4977524,23.7609535,ChIJXdqTRVXfjkYRwCILHr3j32o
Turku Airport,Finland,EFTU,Turku,TKU,60.51414,22.26281,FIN,633679.0,22.26869,60.45148,60.4518126,22.2666303,ChIJu9uOgYR1jEYRAMJLVVG1AAQ
Vaasa Airport,Finland,EFVA,Vaasa,VAA,63.05065,21.76217,FIN,632978.0,21.61577,63.096,63.09508899999999,21.6164564,ChIJQ7I6Yj5gfUYRDoCqYap_HR4
Bastia Airport,France,LFKB,Bastia,BIA,42.55266,9.48373,FRA,3110044.0,-1.97499,43.31283,42.697283,9.450881,ChIJcQmbsAMk1xIRnSuKp1g51hA
Bergerac Airport,France,LFBE,Bergerac,EGC,44.82528,0.51861,FRA,8702816.0,48.8744,44.857386,44.853806,0.483392,ChIJX_VIYHzQqhIRISJV_K10NNI
Biarritz Airport,France,LFBZ,Biarritz,BIQ,43.46842,-1.52333,FRA,8700114.0,-1.546073,43.459186,43.4831519,-1.558626,ChIJMx7zCisVUQ0RMKgTSBdlBgQ
Bordeaux Airport,France,LFBD,Bordeaux,BOD,44.82834,-0.71556,FRA,3031582.0,-5.805,44.84044,44.837789,-0.57918,ChIJgcpR9-gnVQ0RiXo5ewOGY3k
Brest Bretagne Airport,France,LFRB,Brest,BES,48.44791,-4.41854,FRA,3030300.0,-4.48628,48.39029,48.3907119,-4.4869723,ChIJk1uS2eG7FkgRqzCcF1iDSMY
Lille Airport,France,LFQQ,Lille,LIL,50.57037,3.10643,FRA,3147465.0,11.04918,59.95597,50.62925,3.057256,ChIJEW4ls3nVwkcRYGNkgT7xCgQ
Lyon-Saint Exupéry Airport,France,LFLL,Lyon-St,LYS,45.72639,5.09083,FRA,8702384.0,50.75822,45.720908,37.786801,-122.4452848,ChIJURT_WMuAhYARD5c7NqPrekA
Marseille Airport,France,LFML,Marseille,MRS,43.43556,5.21361,FRA,2995469.0,53.8107,43.29695,43.296482,5.36978,ChIJM1PaREO_yRIRIAKX_aUZCAQ
Montpellier Airport,France,LFMT,Montpellier,MPL,43.57762,3.9586,FRA,2992166.0,38.7635,43.61093,43.610769,3.876716,ChIJsZ3dJQevthIRAuiUKHRWh60
Nantes Airport,France,LFRS,Nantes,NTE,47.15319,-1.61072,FRA,2990969.0,-1.55336,47.21725,47.218371,-1.553621,ChIJra6o8IHuBUgRMO0NHlI3DQQ
Nice Airport,France,LFMN,Nice,NCE,43.66272,7.20787,FRA,2990440.0,72.6608,43.70313,43.7101728,7.261953200000001,ChIJMS2FahDQzRIRcJqX_aUZCAQ
Paris Beauvais Airport,France,LFOB,Paris,BVA,49.45444,2.11278,FRA,2988507.0,23.488,48.85341,48.856614,2.3522219,ChIJD7fiBh9u5kcRYJSMaMOCCwQ
Paris Beauvais Airport,France,LFOB,Paris,BVA,49.45444,2.11278,FRA,2988507.0,23.488,48.85341,48.856614,2.3522219,ChIJD7fiBh9u5kcRYJSMaMOCCwQ
Paris Beauvais Airport,France,LFOB,Paris,BVA,49.45444,2.11278,FRA,2988507.0,23.488,48.85341,48.856614,2.3522219,ChIJD7fiBh9u5kcRYJSMaMOCCwQ
Paris Charles de Gaulle Airport,France,LFPG,Paris,CDG,49.01278,2.55,FRA,2988507.0,23.488,48.85341,48.856614,2.3522219,ChIJD7fiBh9u5kcRYJSMaMOCCwQ
Paris Charles de Gaulle Airport,France,LFPG,Paris,CDG,49.01278,2.55,FRA,2988507.0,23.488,48.85341,48.856614,2.3522219,ChIJD7fiBh9u5kcRYJSMaMOCCwQ
Paris Charles de Gaulle Airport,France,LFPG,Paris,CDG,49.01278,2.55,FRA,2988507.0,23.488,48.85341,48.856614,2.3522219,ChIJD7fiBh9u5kcRYJSMaMOCCwQ
Paris Orly Airport,France,LFPO,Paris,ORY,48.72528,2.35944,FRA,2988507.0,23.488,48.85341,48.856614,2.3522219,ChIJD7fiBh9u5kcRYJSMaMOCCwQ
Paris Orly Airport,France,LFPO,Paris,ORY,48.72528,2.35944,FRA,2988507.0,23.488,48.85341,48.856614,2.3522219,ChIJD7fiBh9u5kcRYJSMaMOCCwQ
Paris Orly Airport,France,LFPO,Paris,ORY,48.72528,2.35944,FRA,2988507.0,23.488,48.85341,48.856614,2.3522219,ChIJD7fiBh9u5kcRYJSMaMOCCwQ
Rennes Bretagne Airport,France,LFRN,Rennes,RNS,48.06951,-1.73479,FRA,2983990.0,-1.67429,48.11198,48.117266,-1.6777926,ChIJhZDWpy_eDkgRMKvkNs2lDAQ
Réunion Roland Garros Airport,France,FMEE,Réunion,RUN,-20.8871,55.51031,FRA,2972191.0,70.398,47.39484,-21.115141,55.536384,ChIJO-S4EIF3eCER-erb7ImOf0o
Strasbourg Airport,France,LFST,Strasbourg,SXB,48.53832,7.62823,FRA,2973783.0,77.4553,48.58392,48.5734053,7.752111299999999,ChIJwbIYXknIlkcRHyTnGDFIGpc
Toulouse Blagnac Airport,France,LFBO,Toulouse,TLS,43.62908,1.36382,FRA,2972315.0,14.4367,43.60426,43.604652,1.444209,ChIJ_1J17G-7rhIRMBBBL5z2BgQ
Allgäu Airport Memmingen,Germany,EDJA,Memmingen,FMM,47.98751,10.23622,DEU,8000249.0,10.186954,47.985848,47.9837999,10.1801883,ChIJP_ogz1fym0cR2CeWXchIgM8
Berlin Brandenburg Airport,Germany,EDDB,Berlin Brandenburg,BER,52.36213,13.50168,DEU,8089044.0,13.381693,52.516465,52.52000659999999,13.404954,ChIJAVkDPzdOqEcRcDteW0YgIQQ
Bremen Airport,Germany,EDDW,Bremen,BRE,53.0475,8.78667,DEU,2944388.0,88.0717,53.07582,53.07929619999999,8.8016937,ChIJNePuDBAosUcRUd83-VyI6MI
Cologne Bonn Airport,Germany,EDDK,Cologne,CGN,50.87894,7.12292,DEU,2886242.0,69.5,50.93333,50.937531,6.9602786,ChIJ5S-raZElv0cR8HcqSvxgJwQ
Dortmund Airport,Germany,EDLW,Dortmund,DTM,51.51831,7.61224,DEU,2935517.0,74.66,51.51494,51.5135872,7.465298100000001,ChIJEXrwv2AXuUcRUIdUMYHyJwQ
Dresden Airport,Germany,EDDC,Dresden,DRS,51.13277,13.76716,DEU,2935022.0,13.73832,51.05089,51.0504088,13.7372621,ChIJqdYaECnPCUcRsP6IQsuxIQQ
Düsseldorf Airport,Germany,EDDL,Düsseldorf,DUS,51.28066,6.76715,DEU,2934246.0,67.7616,51.22172,51.2277411,6.7734556,ChIJB1lG8XvJuEcRsHMqSvxgJwQ
Frankfurt Airport,Germany,EDDF,Frankfurt,FRA,50.0406,8.55603,DEU,2925533.0,86.8417,50.11552,50.1109221,8.6821267,ChIJxZZwR28JvUcRAMawKVBDIgQ
Frankfurt Airport,Germany,EDDF,Frankfurt,FRA,50.0406,8.55603,DEU,2925533.0,86.8417,50.11552,50.1109221,8.6821267,ChIJxZZwR28JvUcRAMawKVBDIgQ
Frankfurt-Hahn Airport,Germany,EDFH,Frankfurt,HHN,49.94867,7.26389,DEU,2925533.0,86.8417,50.11552,50.1109221,8.6821267,ChIJxZZwR28JvUcRAMawKVBDIgQ
Frankfurt-Hahn Airport,Germany,EDFH,Frankfurt,HHN,49.94867,7.26389,DEU,2925533.0,86.8417,50.11552,50.1109221,8.6821267,ChIJxZZwR28JvUcRAMawKVBDIgQ
Friedrichshafen Airport,Germany,EDNY,Friedrichshafen,FDH,47.66667,9.5,DEU,8002120.0,95.23837,47.672268,47.65673289999999,9.4649538,ChIJ080TOl4Am0cRIITfpbdrHwQ
Hamburg Airport,Germany,EDDH,Hamburg,HAM,53.63039,9.98823,DEU,2911298.0,99.9302,53.55073,53.5488282,9.9871703,ChIJuRMYfoNhsUcRoDrWe_I9JgQ
Hanover Airport,Germany,EDDV,Hanover,HAJ,52.45957,9.69269,DEU,2910831.0,97.3322,52.37052,52.3758916,9.732010400000002,ChIJhU9JTVELsEcRIEeslG2sJQQ
Karlsruhe Baden-Baden Airport,Germany,EDSB,Karlsruhe,FKB,48.77935,8.0805,DEU,2892794.0,84.0444,49.00937,49.0068901,8.4036527,ChIJCXjgokgGl0cRf-63THNV_LY
Leipzig Halle Airport,Germany,EDDP,Leipzig,LEJ,51.42126,12.22195,DEU,2879139.0,12.37129,51.33962,51.3396955,12.3730747,ChIJcywPIBj4pkcRUvW0udKA35M
Munich Airport,Germany,EDDM,Munich,MUC,48.35378,11.78609,DEU,2867714.0,11.57549,48.13743,48.1351253,11.5819806,ChIJ2V-Mo_l1nkcRfZixfUq4DAE
Nuremberg Airport,Germany,EDDN,Nuremberg,NUE,49.49575,11.07576,DEU,2861650.0,11.07752,49.45421,49.4521018,11.0766654,ChIJ0xy2ta5Xn0cRtyGMqYWvXd0
Paderborn Lippstadt Airport,Germany,EDLP,Paderborn,PAD,51.6081,8.61139,DEU,8000297.0,87.40949,51.712946,51.7189205,8.757509299999999,ChIJ2x1hYZZMukcR7iLvWCqHzHM
Stuttgart Airport,Germany,EDDS,Stuttgart,STR,48.69034,9.19521,DEU,2825297.0,91.7702,48.78232,48.7758459,9.1829321,ChIJ04-twTTbmUcR5M-RdxzB1Xk
Weeze Airport,Germany,EDLV,Weeze,NRN,51.6025,6.14222,DEU,8006240.0,61.97865,51.62434,51.6266679,6.1968442,ChIJ3cCvczlvx0cRQHVUMYHyJwQ
Athens Airport,Greece,LGAV,Athens,ATH,37.93636,23.94447,GRC,264371.0,23.72784,37.98376,37.9838096,23.7275388,ChIJ8UNwBh-9oRQR3Y1mdkU1Nic
Kos Airport,Greece,LGKO,Kos,KGS,36.79333,27.09167,GRC,724443.0,21.25808,48.71395,36.8915064,27.2877228,ChIJNYvAtmf-vRQR3dybRvjEnJ4
Samos Airport,Greece,LGSM,Samos,SMI,37.69,26.91167,GRC,5103270.0,17.433796,53.127876,37.7547857,26.9777701,ChIJ9YDX0Z8_vBQRf9y78okcqUs
Thessaloniki Airport,Greece,LGTS,Thessaloniki,SKG,40.51973,22.97095,GRC,734077.0,22.93086,40.64361,40.6400629,22.9444191,ChIJ7eAoFPQ4qBQRqXTVuBXnugk
Budapest Airport,Hungary,LHBP,Budapest,BUD,47.43693,19.25559,HUN,3054643.0,19.04045,47.49835,47.497912,19.040235,ChIJyc_U0TTDQUcRYBEeDCnEAAQ
Debrecen Airport,Hungary,LHDC,Debrecen,DEB,47.48892,21.61533,HUN,721472.0,21.62444,47.53167,47.5288879,21.6254485,ChIJgyte_ioMR0cRcBEeDCnEAAQ
Cork Airport,Ireland,EICK,Cork,ORK,51.84127,-8.49111,IRL,2965140.0,-8.47061,51.89797,51.8985143,-8.4756035,ChIJYbm-kQiQREgR0MUxl6nHAAo
Dublin Airport,Ireland,EIDW,Dublin,DUB,53.42133,-6.27008,IRL,2964574.0,-6.24889,53.33306,53.3498053,-6.2603097,ChIJL6wn6oAOZ0gRoHExl6nHAAo
Ireland West Airport Knock,Ireland,EIKN,Knock,NOC,53.91028,-8.81806,IRL,6010012.0,-6.371473,53.38156,53.7900638,-8.921465999999999,ChIJCXPKMspVWUgRYMsxl6nHAAo
Shannon Airport,Ireland,EINN,Shannon,SNN,52.70198,-8.92482,IRL,6000022.0,-8.106508,53.938298,52.71178219999999,-8.8783365,ChIJRTVbjNRBW0gRoHkxl6nHAAo
Ancona Airport,Italy,LIPY,Ancona,AOI,43.61634,13.36232,ITA,8336329.0,13.455611,43.610142,43.6158299,13.518915,ChIJw6lHJCqALRMRrMU_VIBWrQ8
Bari Airport,Italy,LIBD,Bari,BRI,41.13697,16.76188,ITA,2988507.0,23.488,48.85341,41.1171432,16.8718715,ChIJb40H8_joRxMR4Qg5agZUcgg
Bergamo Airport,Italy,LIME,Bergamo,BGY,45.67389,9.70417,ITA,3182164.0,96.6721,45.69601,45.6982642,9.6772698,ChIJc65ivBFRgUcR0aTlC4_LL9M
Bologna Airport,Italy,LIPE,Bologna,BLQ,44.53544,11.28867,ITA,3181928.0,11.33875,44.49381,44.494887,11.3426163,ChIJC8RR6ZjUf0cRQZSkWwF84aI
Brindisi Airport,Italy,LIBR,Brindisi,BDS,40.65763,17.94703,ITA,8311139.0,17.90947,40.625409,40.6327278,17.9417616,ChIJbeyAyTt6RhMR-doDzPfOEAE
Catania Fontanarossa Airport,Italy,LICC,Catania,CTA,37.46678,15.0664,ITA,2525068.0,15.07041,37.49223,37.5078772,15.0830304,ChIJtSUVdt3iExMR8DzIUWGH_lg
Comiso Airport,Italy,LICB,Comiso,CIY,36.9959,14.6092,ITA,8302524.0,14.60054,36.947283,36.9361931,14.577181,ChIJi41fta6jERMRCMkv-XqkLus
Florence Airport,Italy,LIRQ,Florence,FLR,43.80995,11.2051,ITA,3176959.0,11.24626,43.77925,43.7695604,11.2558136,ChIJrdbSgKZWKhMRAyrH7xd51ZM
Genoa Airport,Italy,LIMJ,Genoa,GOA,44.41493,8.85041,ITA,3176219.0,89.4439,44.40478,44.4056499,8.946256,ChIJrZrU3FJB0xIRCmKBGPGEaiM
Lamezia Terme Airport,Italy,LICA,Lamezia Terme,SUF,38.90539,16.24227,ITA,8300328.0,16.256021,38.921162,38.962912,16.3092719,ChIJYR5DxA_lPxMRIvzqOYvZh8g
Milan Linate Airport,Italy,LIML,Milan,LIN,45.46081,9.27952,ITA,3173435.0,91.8951,45.46427,45.4642035,9.189982,ChIJ53USP0nBhkcRjQ50xhPN_zw
Milan Linate Airport,Italy,LIML,Milan,LIN,45.46081,9.27952,ITA,3173435.0,91.8951,45.46427,45.4642035,9.189982,ChIJ53USP0nBhkcRjQ50xhPN_zw
Milan Malpensa Airport,Italy,LIMC,Milan,MXP,45.62754,8.71508,ITA,3173435.0,91.8951,45.46427,45.4642035,9.189982,ChIJ53USP0nBhkcRjQ50xhPN_zw
Milan Malpensa Airport,Italy,LIMC,Milan,MXP,45.62754,8.71508,ITA,3173435.0,91.8951,45.46427,45.4642035,9.189982,ChIJ53USP0nBhkcRjQ50xhPN_zw
Naples Airport,Italy,LIRN,Naples,NAP,40.88603,14.29078,ITA,3172394.0,14.26811,40.85216,40.8517983,14.26812,ChIJmX5sak8IOxMRHRl4O8Es9T0
Olbia Costa Smeralda Airport,Italy,LIEO,Olbia,OLB,40.89866,9.51763,ITA,8300874.0,88.06282,45.723308,40.92357639999999,9.4964429,ChIJeepLAgRL2RIRCMiQpHAy_ns
Palermo Airport,Italy,LICJ,Palermo,PMO,38.17596,13.09102,ITA,2523920.0,13.3636,38.1166,38.11569,13.3614868,ChIJmdBOgcnoGRMRgNg7IywECwo
Perugia Airport,Italy,LIRZ,Perugia,PEG,43.09591,12.51322,ITA,3171180.0,12.38878,43.1122,43.1107168,12.3908279,ChIJT8NR6oygLhMR9MdPiCrrOc4
Pescara Airport,Italy,LIBP,Pescara,PSR,42.43286,14.18678,ITA,3171168.0,14.20283,42.4584,42.4617902,14.2160898,ChIJd2QouQ2mMRMR4r8ssomeuKA
Pisa Airport,Italy,LIRP,Pisa,PSA,43.68392,10.39275,ITA,3170647.0,10.4036,43.70853,43.7228386,10.4016888,ChIJj1n28JqR1RIRyHiEp7UPuKo
Rome Ciampino Airport,Italy,LIRA,Rome,CIA,41.79936,12.59494,ITA,3169070.0,12.51133,41.89193,41.9027835,12.4963655,ChIJu46S-ZZhLxMROG5lkwZ3D7k
Rome Ciampino Airport,Italy,LIRA,Rome,CIA,41.79936,12.59494,ITA,3169070.0,12.51133,41.89193,41.9027835,12.4963655,ChIJu46S-ZZhLxMROG5lkwZ3D7k
Rome Fiumicino Airport,Italy,LIRF,Rome,FCO,41.79352,12.25259,ITA,3169070.0,12.51133,41.89193,41.9027835,12.4963655,ChIJu46S-ZZhLxMROG5lkwZ3D7k
Rome Fiumicino Airport,Italy,LIRF,Rome,FCO,41.79352,12.25259,ITA,3169070.0,12.51133,41.89193,41.9027835,12.4963655,ChIJu46S-ZZhLxMROG5lkwZ3D7k
Trapani Airport,Italy,LICT,Trapani,TPS,37.9114,12.48796,ITA,8300340.0,12.519304,38.017278,38.0173505,12.5365171,ChIJX5Ck1i9iGRMRgjSY-bze8Ys
Treviso Airport,Italy,LIPH,Treviso,TSF,45.6484,12.19442,ITA,8300130.0,12.245133,45.6597,45.6668893,12.2430437,ChIJUd4MwdM3eUcRjXQiXACb9kI
Trieste Airport,Italy,LIPQ,Trieste,TRS,45.82279,13.48464,ITA,3165185.0,13.77678,45.64953,45.6495264,13.7768182,ChIJM_Xt5AZre0cRUCvd1IQkamY
Turin Airport,Italy,LIMF,Turin,TRN,45.20076,7.64963,ITA,3165524.0,76.8682,45.07049,45.0703393,7.686864,ChIJ31ztwwxtiEcR4JQ8R33mBQQ
Verona Airport,Italy,LIPX,Verona,VRN,45.39571,10.88853,ITA,3164527.0,10.98444,45.4299,45.43838419999999,10.9916215,ChIJ4-CbaWhff0cRW1mCaGNa-FM
Riga Airport,Latvia,EVRA,Riga,RIX,56.92361,23.97111,LVA,2262963.0,-8.8882,38.5244,56.9676941,24.1056221,ChIJ7T0H5bDP7kYRMP7yaM3PAAQ
Kaunas Airport,Lithuania,EYKA,Kaunas,KUN,54.96392,24.08478,LTU,598316.0,23.90961,54.90272,54.8985207,23.9035965,ChIJQ9NnsXAi50YRvIs3x-DRS2E
Vilnius Airport,Lithuania,EYVI,Vilnius,VNO,54.63413,25.28577,LTU,593116.0,25.2798,54.68916,54.6871555,25.2796514,ChIJ9QhkXPuT3UYRQNzpcIzRAAQ
Luxembourg Airport,Luxembourg,ELLX,Luxembourg,LUX,49.62658,6.21152,LUX,2960316.0,61.3,49.61167,49.815273,6.129582999999999,ChIJRyEhyrlFlUcR75LTAvZg22Q
Chisinau Airport,Moldova,LUKK,Chisinau,KIV,46.92778,28.93083,MDA,618426.0,28.8575,47.00556,47.0104529,28.8638103,ChIJoWm3KDZ8yUARPN1JVzDW0Tc
Podgorica Airport,Montenegro,LYPG,Podgorica,TGD,42.35939,19.25189,MNE,3193044.0,19.26361,42.44111,42.4304196,19.2593642,ChIJfYYGlgfoTRMR6YpY6naK92s
Amsterdam Airport Schiphol,Netherlands,EHAM,Amsterdam,AMS,52.3103,4.76028,NLD,2759794.0,48.8969,52.37403,52.3675734,4.9041389,ChIJVXealLU_xkcRja_At0z9AGY
Eindhoven Airport,Netherlands,EHEH,Eindhoven,EIN,51.45014,5.37453,NLD,2756253.0,54.7778,51.44083,51.42314229999999,5.462289699999999,ChIJn8N5VRvZxkcRmLlkgWTSmvM
Groningen Airport Eelde,Netherlands,EHGG,Groningen,GRQ,53.11972,6.57944,NLD,2755251.0,65.6667,53.21917,53.2193835,6.566501799999999,ChIJp8xitIYyyEcR3Mim-YZQS8s
Maastricht Aachen Airport,Netherlands,EHBK,Maastricht,MST,50.91166,5.77014,NLD,2751283.0,56.8889,50.84833,50.8513682,5.6909725,ChIJnwZBWOzpwEcRbqi-zHuV61M
Skopje Airport,North Macedonia,LWSK,Skopje,SKP,41.96162,21.62138,MKD,785842.0,21.43141,41.99646,41.9981294,21.4254355,ChIJpaKajKUVVBMRICCHYMKI7bI
Bergen Airport,Norway,ENBR,Bergen,BGO,60.29339,5.21814,NOR,3161732.0,53.2415,60.39299,60.39126279999999,5.3220544,ChIJd312ZkkNOUYRCAretD6gQp4
Bodø Airport,Norway,ENBO,Bodø,BOO,67.26917,14.36528,NOR,3160881.0,14.40501,67.28,67.2803556,14.404916,ChIJffFjW_UQ30URUzxdspNbeI4
Kristiansand Airport,Norway,ENCN,Kristiansand,KRS,58.20421,8.08537,NOR,3149318.0,79.956,58.14671,58.15991189999999,8.0182064,ChIJW3pg1VgCOEYRpFgcyG8NDN8
Oslo Airport,Norway,ENGM,Oslo,OSL,60.19392,11.10036,NOR,3143244.0,10.74609,59.91273,59.9138688,10.7522454,ChIJOfBn8mFuQUYRmh4j019gkn4
Sandefjord Airport Torp,Norway,ENTO,Sandefjord,TRF,59.1867,10.25863,NOR,3140390.0,10.21665,59.13118,59.1313095,10.2165948,ChIJK4A6VZDARkYRouE8XKJRW8M
Stavanger Airport,Norway,ENZV,Stavanger,SVG,58.87678,5.63786,NOR,3137115.0,57.3332,58.97005,58.9699756,5.7331073,ChIJlfcp3Uk1OkYRWZIKuCHreq0
Trondheim Airport,Norway,ENVA,Trondheim,TRD,63.45756,10.92425,NOR,3133880.0,10.39506,63.43049,63.4305149,10.3950528,ChIJU34DR5cxbUYR1PM8jyjI9ws
Gdansk Airport,Poland,EPGD,Gdansk,GDN,54.37808,18.46823,POL,3099434.0,18.64912,54.35227,54.35202520000001,18.6466384,ChIJb_rUFBxz_UYRjb63Y_H7uZs
Katowice Airport,Poland,EPKT,Katowice,KTW,50.47425,19.08002,POL,3096472.0,19.02754,50.25841,50.26489189999999,19.0237815,ChIJ0cyhNiPOFkcRu_pZBTUqr7k
Kraków Airport,Poland,EPKK,Kraków,KRK,50.07617,19.79157,POL,3094802.0,19.93658,50.06143,50.06465009999999,19.9449799,ChIJ0RhONcBEFkcRv4pHdrW2a7Q
Poznan Airport,Poland,EPPO,Poznan,POZ,52.42103,16.82633,POL,3088171.0,16.92993,52.40692,52.406374,16.9251681,ChIJtwrh7NJEBEcR0b80A5gx6qQ
Szczecin-Goleniów Airport,Poland,EPSC,Szczecin-Goleniów,SZZ,53.58473,14.90221,POL,5104689.0,14.896294,53.593616,53.56382,14.82843,ChIJPw66ONCeAEcR5BQZhvsniao
Warsaw Airport,Poland,EPWA,Warsaw,WAW,52.16575,20.96712,POL,756135.0,21.01178,52.22977,52.2296756,21.0122287,ChIJAZ-GmmbMHkcR_NPqiCq-8HI
Warsaw Airport,Poland,EPWA,Warsaw,WAW,52.16575,20.96712,POL,756135.0,21.01178,52.22977,52.2296756,21.0122287,ChIJAZ-GmmbMHkcR_NPqiCq-8HI
Warsaw Modlin Airport,Poland,EPMO,Warsaw,WMI,52.45117,20.65271,POL,756135.0,21.01178,52.22977,52.2296756,21.0122287,ChIJAZ-GmmbMHkcR_NPqiCq-8HI
Warsaw Modlin Airport,Poland,EPMO,Warsaw,WMI,52.45117,20.65271,POL,756135.0,21.01178,52.22977,52.2296756,21.0122287,ChIJAZ-GmmbMHkcR_NPqiCq-8HI
Wroclaw Airport,Poland,EPWR,Wroclaw,WRO,51.10268,16.88584,POL,3081368.0,17.03333,51.1,51.1078852,17.0385376,ChIJv4q11MLpD0cR9eAFwq5WCbc
Faro Airport,Portugal,LPFR,Faro,FAO,37.01443,-7.96591,PRT,2268339.0,-7.92716,37.01869,37.0193548,-7.9304397,ChIJp_qQIudSBQ0RWv9KSdTCc40
Lisbon Airport,Portugal,LPPT,Lisbon,LIS,38.78131,-9.13592,PRT,2267057.0,-9.13333,38.71667,38.7222524,-9.1393366,ChIJO_PkYRozGQ0R0DaQ5L3rAAQ
Madeira Airport,Portugal,LPMA,Madeira,FNC,32.69778,-16.77444,PRT,9400531.0,-8.495462,40.898806,32.76070740000001,-16.9594723,ChIJ7y75-KDpXwwRb166dGfldww
Porto Airport,Portugal,LPPR,Porto,OPO,41.24806,-8.68139,PRT,2735943.0,-8.61099,41.14961,41.1579438,-8.629105299999999,ChIJwVPhxKtlJA0RvBSxQFbZSKY
Bucharest Henri Coanda Airport,Romania,LROP,Bucharest,OTP,44.57216,26.10218,ROU,683506.0,26.10626,44.43225,44.4267674,26.1025384,ChIJT608vzr5sUARKKacfOMyBqw
Cluj-Napoca Airport,Romania,LRCL,Cluj-Napoca,CLJ,46.78517,23.68617,ROU,681290.0,23.6,46.76667,46.7712101,23.6236353,ChIJiwtskR8MSUcRixQfMxxgvAs
Iasi Airport,Romania,LRIA,Iasi,IAS,47.17849,27.62063,ROU,675810.0,27.6,47.16667,47.1584549,27.6014418,ChIJu9059nz7ykARPPUmVNqAy3w
Sibiu Airport,Romania,LRSB,Sibiu,SBZ,45.7856,24.09134,ROU,667268.0,24.15,45.8,45.80347889999999,24.1449997,ChIJ1Rws_YhnTEcRtJAzTiGd3jo
Timisoara Airport,Romania,LRTR,Timisoara,TSR,45.80986,21.33786,ROU,665087.0,21.22571,45.75372,45.7488716,21.2086793,ChIJp7UPy31nRUcRSWeTc2Svf1M
Belgrade Nikola Tesla Airport,Serbia,LYBE,Belgrade,BEG,44.81844,20.30914,SRB,792680.0,20.46513,44.80401,44.8125449,20.46123,ChIJvT-116N6WkcR5H4X8lxkuB0
Niš Airport,Serbia,LYNI,Niš,INI,43.33729,21.85372,SRB,593116.0,25.2798,54.68916,43.320926,21.8954069,ChIJZR_IQMKwVUcRzcMqEuOfMVY
Bratislava Airport,Slovakia,LZIB,Bratislava,BTS,48.17017,17.21267,SVK,3060972.0,17.10674,48.14816,48.1485965,17.1077477,ChIJl2HKCjaJbEcRaEOI_YKbH2M
Košice Airport,Slovakia,LZKZ,Košice,KSC,48.66306,21.24111,SVK,724443.0,21.25808,48.71395,48.7163857,21.2610746,ChIJe5XGZxvgPkcR0IuXxtH3AAQ
Alicante Airport,Spain,LEAL,Alicante,ALC,38.28217,-0.55816,ESP,2521978.0,-4.8149,38.34517,38.3459963,-0.4906855,ChIJS6udO9o1Yg0R44ELrHKofR0
Almeria Airport,Spain,LEAM,Almeria,LEI,36.84394,-2.3701,ESP,2521886.0,-2.45974,36.83814,36.834047,-2.4637136,ChIJwfLM7ACeeg0RXki8jh-gnY0
Asturias Airport,Spain,LEAS,Asturias,OVD,43.56357,-6.03462,ESP,7115401.0,-5.697732,43.535289,43.3613953,-5.8593267,ChIJnbCeYPqMNg0ROp7GfSvztfg
Barcelona Airport,Spain,LEBL,Barcelona,BCN,41.29708,2.07846,ESP,3128760.0,21.5899,41.38879,41.3873974,2.168568,ChIJ5TCOcRaYpBIRCmZHTz37sEQ
Bilbao Airport,Spain,LEBB,Bilbao,BIO,43.3011,-2.91061,ESP,3128026.0,-2.92528,43.26271,43.2630126,-2.9349852,ChIJuYlLZidOTg0RRaaVHsSsNGU
Girona Airport,Spain,LEGE,Girona,GRO,41.90097,2.76055,ESP,7100077.0,28.16482,41.979517,41.9794005,2.8214264,ChIJq_3ImCfnuhIRb2oppbZFOK8
Jerez Airport,Spain,LEJR,Jerez,XRY,36.74462,-6.06011,ESP,2516326.0,-6.13606,36.68645,36.6850064,-6.126074399999999,ChIJn6NESOjGDQ0R6v_Q8_U-rG0
La Palma Airport,Spain,GCLA,La Palma,SPC,28.62648,-17.75561,ESP,7100112.0,-6.554494,37.390505,28.7133828,-17.9057813,ChIJO6GHagzyawwRLYgwI9I3II4
Madrid Barajas Airport,Spain,LEMD,Madrid,MAD,40.49181,-3.56948,ESP,3117735.0,-3.70256,40.4165,40.4167754,-3.7037902,ChIJgTwKgJcpQg0RaSKMYcHeNsQ
Malaga Airport,Spain,LEMG,Malaga,AGP,36.6749,-4.49911,ESP,2514256.0,-4.42034,36.72016,36.721261,-4.4212655,ChIJLSHbT8RZcg0RzzLKyZLcJWA
Reus Airport,Spain,LERS,Reus,REU,41.14739,1.16717,ESP,255274.0,23.64619,37.94203,41.1498259,1.1055321,ChIJXZ5tuORQoRIR0s7eSdKQIS4
Santiago de Compostela Airport,Spain,LEST,Santiago de Compostela,SCQ,42.89766,-8.41793,ESP,7100028.0,-8.544687,42.870518,42.8768606,-8.5441729,ChIJp3Hd4kT-Lg0REeOHwIhoFOA
Seville Airport,Spain,LEZL,Seville,SVQ,37.418,-5.89311,ESP,2510911.0,-5.97317,37.38283,37.3890924,-5.9844589,ChIJkWK-FBFsEg0RSFb-HGIY8DQ
Valencia Airport,Spain,LEVC,Valencia,VLC,39.48931,-0.48163,ESP,2509954.0,-3.7739,39.46975,39.4699075,-0.3762881,ChIJb7Dv8ExPYA0ROR1_HwFRo7Q
Gothenburg Landvetter Airport,Sweden,ESGG,Gothenburg,GOT,57.66818,12.29083,SWE,2711537.0,11.96679,57.70716,57.70887,11.97456,ChIJPwdslmeOT0YRQHwOKXiQAQQ
Malmö Airport,Sweden,ESMS,Malmö,MMX,55.54205,13.372,SWE,2692969.0,13.00073,55.60587,55.604981,13.003822,ChIJ_5HEdKUFU0YR5YhIvd8FqdM
Basel Mulhouse Freiburg Airport,Switzerland,LFSB,Basel,BSL,47.599608,7.532604,CHE,3128760.0,21.5899,41.38879,47.5595986,7.5885761,ChIJTzBpJ8dJkEcRkIpt83DrHDY
Geneva Airport,Switzerland,LSGG,Geneva,GVA,46.23756,6.10921,CHE,2660646.0,61.4569,46.20222,46.2043907,6.1431577,ChIJ6-LQkwZljEcRObwLezWVtqA
Adana Airport,Turkey,LTAF,Adana,ADA,36.98217,35.28039,TUR,2643743.0,-1.2574,51.50853,36.9914194,35.3308285,ChIJk3GcpziPKBURBuoLWNh0FtY
Ankara Esenboga Airport,Turkey,LTAC,Ankara,ESB,40.12808,32.99508,TUR,7500010.0,32.843815,39.936026,39.9333635,32.8597419,ChIJsS1zINVH0xQRjSuEwLBX3As
Istanbul Airport,Turkey,LTFM,Istanbul,IST,41.2629,28.74242,TUR,7501624.0,29.037657,40.991,41.0082376,28.9783589,ChIJawhoAASnyhQR0LABvJj-zOE
Kharkiv Airport,Ukraine,UKHH,Kharkiv,HRK,49.92479,36.28999,UKR,2200044.0,36.203974,49.989391,50.00201269999999,36.3073994,ChIJiw-rY5-gJ0ERCr6kGmgYTC0
Kiev Boryspil Airport,Ukraine,UKBB,Kiev,KBP,50.345,30.89472,UKR,2200005.0,30.48919,50.440326,50.4503596,30.5245025,ChIJBUVa4U7P1EAR_kYBF9IxSXY
Kiev Boryspil Airport,Ukraine,UKBB,Kiev,KBP,50.345,30.89472,UKR,2200005.0,30.48919,50.440326,50.4503596,30.5245025,ChIJBUVa4U7P1EAR_kYBF9IxSXY
Kiev Zhuliany Airport,Ukraine,UKKK,Kiev,IEV,50.40169,30.4497,UKR,2200005.0,30.48919,50.440326,50.4503596,30.5245025,ChIJBUVa4U7P1EAR_kYBF9IxSXY
Kiev Zhuliany Airport,Ukraine,UKKK,Kiev,IEV,50.40169,30.4497,UKR,2200005.0,30.48919,50.440326,50.4503596,30.5245025,ChIJBUVa4U7P1EAR_kYBF9IxSXY
Lviv Airport,Ukraine,UKLL,Lviv,LWO,49.8125,23.95611,UKR,2200025.0,23.994196,49.839846,49.839683,24.029717,ChIJV5oQCXzdOkcR4ngjARfFI0I
Aberdeen Airport,United Kingdom,EGPD,Aberdeen,ABZ,57.20194,-2.19778,GBR,2657832.0,-2.09814,57.14369,57.1498891,-2.0937528,ChIJSXXXH0wFhEgRcsT0XNoFu-g
Belfast City Airport,United Kingdom,EGAC,Belfast,BHD,54.61806,-5.8725,GBR,2655984.0,-5.92541,54.59682,54.59728500000001,-5.93012,ChIJO4rQ1_3_YEgRMcXH7ywWVy4
Belfast City Airport,United Kingdom,EGAC,Belfast,BHD,54.61806,-5.8725,GBR,2655984.0,-5.92541,54.59682,54.59728500000001,-5.93012,ChIJO4rQ1_3_YEgRMcXH7ywWVy4
Belfast International Airport,United Kingdom,EGAA,Belfast,BFS,54.6575,-6.21583,GBR,2655984.0,-5.92541,54.59682,54.59728500000001,-5.93012,ChIJO4rQ1_3_YEgRMcXH7ywWVy4
Belfast International Airport,United Kingdom,EGAA,Belfast,BFS,54.6575,-6.21583,GBR,2655984.0,-5.92541,54.59682,54.59728500000001,-5.93012,ChIJO4rQ1_3_YEgRMcXH7ywWVy4
Birmingham Airport,United Kingdom,EGBB,Birmingham,BHX,52.45386,-1.74803,GBR,2655603.0,-1.89983,52.48142,52.48624299999999,-1.890401,ChIJc3FBGy2UcEgRmHnurvD-gco
Bristol Airport,United Kingdom,EGGD,Bristol,BRS,51.38267,-2.71909,GBR,2654675.0,-2.59665,51.45523,51.454513,-2.58791,ChIJYdizgWaDcUgRH9eaSy6y5I4
Cardiff Airport,United Kingdom,EGFF,Cardiff,CWL,51.39667,-3.34333,GBR,2653822.0,-3.18,51.48,51.483707,-3.1680962,ChIJ9VPsNNQCbkgRDmeGZdsGNBQ
Edinburgh Airport,United Kingdom,EGPH,Edinburgh,EDI,55.95,-3.3725,GBR,2650225.0,-3.19648,55.95206,55.953252,-3.188267,ChIJIyaYpQC4h0gRJxfnfHsU8mQ
Exeter Airport,United Kingdom,EGTE,Exeter,EXT,50.73444,-3.41389,GBR,7000819.0,-3.532958,50.726569,50.72603669999999,-3.5274889,ChIJp41J1MRSbEgRHq3fayXjdqk
Glasgow Airport,United Kingdom,EGPF,Glasgow,GLA,55.87194,-4.43306,GBR,2648579.0,-4.25763,55.86515,55.86167039999999,-4.2583345,ChIJ685WIFYViEgRHlHvBbiD5nE
Glasgow Airport,United Kingdom,EGPF,Glasgow,GLA,55.87194,-4.43306,GBR,2648579.0,-4.25763,55.86515,55.86167039999999,-4.2583345,ChIJ685WIFYViEgRHlHvBbiD5nE
Glasgow Prestwick Airport,United Kingdom,EGPK,Glasgow,PIK,55.50944,-4.58667,GBR,2648579.0,-4.25763,55.86515,55.86167039999999,-4.2583345,ChIJ685WIFYViEgRHlHvBbiD5nE
Glasgow Prestwick Airport,United Kingdom,EGPK,Glasgow,PIK,55.50944,-4.58667,GBR,2648579.0,-4.25763,55.86515,55.86167039999999,-4.2583345,ChIJ685WIFYViEgRHlHvBbiD5nE
Leeds Bradford Airport,United Kingdom,EGNM,Leeds,LBA,53.8659,-1.66057,GBR,2644688.0,-1.54785,53.79648,53.8007554,-1.5490774,ChIJmb1k2ko-eUgRqdwTAv26rVE
Liverpool Airport,United Kingdom,EGGP,Liverpool,LPL,53.33333,-2.85,GBR,2644210.0,-2.97794,53.41058,53.4083714,-2.9915726,ChIJt2BwZIrfekgRAW4XP28E3EI
London City Airport,United Kingdom,EGLC,London,LCY,51.50528,0.05528,GBR,2643743.0,-1.2574,51.50853,51.5072178,-0.1275862,ChIJdd4hrwug2EcRmSrV3Vo6llI
London City Airport,United Kingdom,EGLC,London,LCY,51.50528,0.05528,GBR,2643743.0,-1.2574,51.50853,51.5072178,-0.1275862,ChIJdd4hrwug2EcRmSrV3Vo6llI
London City Airport,United Kingdom,EGLC,London,LCY,51.50528,0.05528,GBR,2643743.0,-1.2574,51.50853,51.5072178,-0.1275862,ChIJdd4hrwug2EcRmSrV3Vo6llI
London City Airport,United Kingdom,EGLC,London,LCY,51.50528,0.05528,GBR,2643743.0,-1.2574,51.50853,51.5072178,-0.1275862,ChIJdd4hrwug2EcRmSrV3Vo6llI
London City Airport,United Kingdom,EGLC,London,LCY,51.50528,0.05528,GBR,2643743.0,-1.2574,51.50853,51.5072178,-0.1275862,ChIJdd4hrwug2EcRmSrV3Vo6llI
London City Airport,United Kingdom,EGLC,London,LCY,51.50528,0.05528,GBR,2643743.0,-1.2574,51.50853,51.5072178,-0.1275862,ChIJdd4hrwug2EcRmSrV3Vo6llI
London Gatwick Airport,United Kingdom,EGKK,London,LGW,51.15609,-0.17818,GBR,2643743.0,-1.2574,51.50853,51.5072178,-0.1275862,ChIJdd4hrwug2EcRmSrV3Vo6llI
London Gatwick Airport,United Kingdom,EGKK,London,LGW,51.15609,-0.17818,GBR,2643743.0,-1.2574,51.50853,51.5072178,-0.1275862,ChIJdd4hrwug2EcRmSrV3Vo6llI
London Gatwick Airport,United Kingdom,EGKK,London,LGW,51.15609,-0.17818,GBR,2643743.0,-1.2574,51.50853,51.5072178,-0.1275862,ChIJdd4hrwug2EcRmSrV3Vo6llI
London Gatwick Airport,United Kingdom,EGKK,London,LGW,51.15609,-0.17818,GBR,2643743.0,-1.2574,51.50853,51.5072178,-0.1275862,ChIJdd4hrwug2EcRmSrV3Vo6llI
London Gatwick Airport,United Kingdom,EGKK,London,LGW,51.15609,-0.17818,GBR,2643743.0,-1.2574,51.50853,51.5072178,-0.1275862,ChIJdd4hrwug2EcRmSrV3Vo6llI
London Gatwick Airport,United Kingdom,EGKK,London,LGW,51.15609,-0.17818,GBR,2643743.0,-1.2574,51.50853,51.5072178,-0.1275862,ChIJdd4hrwug2EcRmSrV3Vo6llI
London Heathrow Airport,United Kingdom,EGLL,London,LHR,51.47115,-0.45649,GBR,2643743.0,-1.2574,51.50853,51.5072178,-0.1275862,ChIJdd4hrwug2EcRmSrV3Vo6llI
London Heathrow Airport,United Kingdom,EGLL,London,LHR,51.47115,-0.45649,GBR,2643743.0,-1.2574,51.50853,51.5072178,-0.1275862,ChIJdd4hrwug2EcRmSrV3Vo6llI
London Heathrow Airport,United Kingdom,EGLL,London,LHR,51.47115,-0.45649,GBR,2643743.0,-1.2574,51.50853,51.5072178,-0.1275862,ChIJdd4hrwug2EcRmSrV3Vo6llI
London Heathrow Airport,United Kingdom,EGLL,London,LHR,51.47115,-0.45649,GBR,2643743.0,-1.2574,51.50853,51.5072178,-0.1275862,ChIJdd4hrwug2EcRmSrV3Vo6llI
London Heathrow Airport,United Kingdom,EGLL,London,LHR,51.47115,-0.45649,GBR,2643743.0,-1.2574,51.50853,51.5072178,-0.1275862,ChIJdd4hrwug2EcRmSrV3Vo6llI
London Heathrow Airport,United Kingdom,EGLL,London,LHR,51.47115,-0.45649,GBR,2643743.0,-1.2574,51.50853,51.5072178,-0.1275862,ChIJdd4hrwug2EcRmSrV3Vo6llI
London Luton Airport,United Kingdom,EGGW,London,LTN,51.87472,-0.36833,GBR,2643743.0,-1.2574,51.50853,51.5072178,-0.1275862,ChIJdd4hrwug2EcRmSrV3Vo6llI
London Luton Airport,United Kingdom,EGGW,London,LTN,51.87472,-0.36833,GBR,2643743.0,-1.2574,51.50853,51.5072178,-0.1275862,ChIJdd4hrwug2EcRmSrV3Vo6llI
London Luton Airport,United Kingdom,EGGW,London,LTN,51.87472,-0.36833,GBR,2643743.0,-1.2574,51.50853,51.5072178,-0.1275862,ChIJdd4hrwug2EcRmSrV3Vo6llI
London Luton Airport,United Kingdom,EGGW,London,LTN,51.87472,-0.36833,GBR,2643743.0,-1.2574,51.50853,51.5072178,-0.1275862,ChIJdd4hrwug2EcRmSrV3Vo6llI
London Luton Airport,United Kingdom,EGGW,London,LTN,51.87472,-0.36833,GBR,2643743.0,-1.2574,51.50853,51.5072178,-0.1275862,ChIJdd4hrwug2EcRmSrV3Vo6llI
London Luton Airport,United Kingdom,EGGW,London,LTN,51.87472,-0.36833,GBR,2643743.0,-1.2574,51.50853,51.5072178,-0.1275862,ChIJdd4hrwug2EcRmSrV3Vo6llI
London Southend Airport,United Kingdom,EGMC,London,SEN,51.57139,0.69556,GBR,2643743.0,-1.2574,51.50853,51.5072178,-0.1275862,ChIJdd4hrwug2EcRmSrV3Vo6llI
London Southend Airport,United Kingdom,EGMC,London,SEN,51.57139,0.69556,GBR,2643743.0,-1.2574,51.50853,51.5072178,-0.1275862,ChIJdd4hrwug2EcRmSrV3Vo6llI
London Southend Airport,United Kingdom,EGMC,London,SEN,51.57139,0.69556,GBR,2643743.0,-1.2574,51.50853,51.5072178,-0.1275862,ChIJdd4hrwug2EcRmSrV3Vo6llI
London Southend Airport,United Kingdom,EGMC,London,SEN,51.57139,0.69556,GBR,2643743.0,-1.2574,51.50853,51.5072178,-0.1275862,ChIJdd4hrwug2EcRmSrV3Vo6llI
London Southend Airport,United Kingdom,EGMC,London,SEN,51.57139,0.69556,GBR,2643743.0,-1.2574,51.50853,51.5072178,-0.1275862,ChIJdd4hrwug2EcRmSrV3Vo6llI
London Southend Airport,United Kingdom,EGMC,London,SEN,51.57139,0.69556,GBR,2643743.0,-1.2574,51.50853,51.5072178,-0.1275862,ChIJdd4hrwug2EcRmSrV3Vo6llI
London Stansted Airport,United Kingdom,EGSS,London,STN,51.885,0.235,GBR,2643743.0,-1.2574,51.50853,51.5072178,-0.1275862,ChIJdd4hrwug2EcRmSrV3Vo6llI
London Stansted Airport,United Kingdom,EGSS,London,STN,51.885,0.235,GBR,2643743.0,-1.2574,51.50853,51.5072178,-0.1275862,ChIJdd4hrwug2EcRmSrV3Vo6llI
London Stansted Airport,United Kingdom,EGSS,London,STN,51.885,0.235,GBR,2643743.0,-1.2574,51.50853,51.5072178,-0.1275862,ChIJdd4hrwug2EcRmSrV3Vo6llI
London Stansted Airport,United Kingdom,EGSS,London,STN,51.885,0.235,GBR,2643743.0,-1.2574,51.50853,51.5072178,-0.1275862,ChIJdd4hrwug2EcRmSrV3Vo6llI
London Stansted Airport,United Kingdom,EGSS,London,STN,51.885,0.235,GBR,2643743.0,-1.2574,51.50853,51.5072178,-0.1275862,ChIJdd4hrwug2EcRmSrV3Vo6llI
London Stansted Airport,United Kingdom,EGSS,London,STN,51.885,0.235,GBR,2643743.0,-1.2574,51.50853,51.5072178,-0.1275862,ChIJdd4hrwug2EcRmSrV3Vo6llI
Manchester Airport,United Kingdom,EGCC,Manchester,MAN,53.35374,-2.27495,GBR,2643123.0,-2.23743,53.48095,53.4807593,-2.2426305,ChIJ2_UmUkxNekgRqmv-BDgUvtk
Newcastle Airport,United Kingdom,EGNT,Newcastle,NCL,55.0375,-1.69167,GBR,2641673.0,-1.61396,54.97328,54.978252,-1.61778,ChIJzWRvDH6FfUgRkWGncrBS4gs
